[
    {
      "id": 101,
      "name": "Point A",
      "coordinates": [51.506, -0.09]
    },
    {
      "id": 102,
      "name": "Point B",
      "coordinates": [51.508, -0.11]
    },
    {
      "id": 103,
      "name": "Point C",
      "coordinates": [51.513, -0.085]
    },
    {
      "id": 104,
      "name": "Point D",
      "coordinates": [51.514, -0.12]
    },
    {
      "id": 105,
      "name": "Point E",
      "coordinates": [51.511, -0.14]
    },
    {
      "id": 106,
      "name": "Point F",
      "coordinates": [51.516, -0.11]
    },
    {
      "id": 107,
      "name": "Point G",
      "coordinates": [51.5125, -0.087]
    }
]
